{
    "Algiers , Algeria": {
        "Lat": 36.7525,
        "Long": 3.04197,
        "PlaceID": "algiers-_algeria"
    },
    "Andé, France": {
        "Lat": 49.23163,
        "Long": 1.24088,
        "PlaceID": "andé_france"
    },
    "Beijing, China": {
        "Lat": 39.9075,
        "Long": 116.39723,
        "PlaceID": "beijing_china"
    },
    "Berlin, Germany": {
        "Lat": 52.52437,
        "Long": 13.41053,
        "PlaceID": "berlin_germany"
    },
    "Buenos Aires, Argentina": {
        "Lat": -34.61315,
        "Long": -58.37723,
        "PlaceID": "buenos-aires_argentina"
    },
    "Cherbourg, France": {
        "Lat": 49.63984,
        "Long": -1.61636,
        "PlaceID": "cherbourg_france"
    },
    "Corfu, Greece": {
        "Lat": 39.62069,
        "Long": 19.91975,
        "PlaceID": "corfu_greece"
    },
    "Fort-de-France, Martinique": {
        "Lat": 14.60892,
        "Long": -61.07334,
        "PlaceID": "fort-de-france_martinique"
    },
    "Genoa, Italy": {
        "Lat": 44.4264,
        "Long": 8.91519,
        "PlaceID": "genoa_italy"
    },
    "Hanoi, Vietnam": {
        "Lat": 21.0245,
        "Long": 105.84117,
        "PlaceID": "hanoi_vietnam"
    },
    "Havana, Cuba": {
        "Lat": 23.13302,
        "Long": -82.38304,
        "PlaceID": "havana_cuba"
    },
    "Jacmel, Haiti": {
        "Lat": 18.23427,
        "Long": -72.53539,
        "PlaceID": "jacmel_haiti"
    },
    "Kingston, Jamaica": {
        "Lat": 17.99702,
        "Long": -76.79358,
        "PlaceID": "kingston_jamaica"
    },
    "Leysin, Switzerland": {
        "Lat": 46.34183,
        "Long": 7.01151,
        "PlaceID": "leysin_switzerland"
    },
    "Lézignan-Corbières, France": {
        "Lat": 43.19765,
        "Long": 2.76142,
        "PlaceID": "lézignan-corbières_france"
    },
    "Marienbad, Czech Republic": {
        "Lat": 49.96459,
        "Long": 12.70118,
        "PlaceID": "marienbad_czech-republic"
    },
    "Miami, United States": {
        "Lat": 25.79065,
        "Long": -80.13005,
        "PlaceID": "miami_united-states"
    },
    "Milan, Italy": {
        "Lat": 45.46427,
        "Long": 9.18951,
        "PlaceID": "milan_italy"
    },
    "Moscow, Russia": {
        "Lat": 55.75222,
        "Long": 37.61556,
        "PlaceID": "moscow_russia"
    },
    "New York City, United States": {
        "Lat": 40.71427,
        "Long": -74.00597,
        "PlaceID": "new-york-city_united-states"
    },
    "New York, United States": {
        "Lat": 40.71427,
        "Long": -74.00597,
        "PlaceID": "new-york_united-states"
    },
    "Paris, France": {
        "Lat": 48.85341,
        "Long": 2.3488,
        "PlaceID": "paris_france"
    },
    "Point-à-Pitre, Guadeloupe": {
        "Lat": 16.34948,
        "Long": -61.01055,
        "PlaceID": "point-à-pitre_guadeloupe"
    },
    "Port-au-Prince, Haiti": {
        "Lat": 18.53917,
        "Long": -72.335,
        "PlaceID": "port-au-prince_haiti"
    },
    "Prague, Czech Republic": {
        "Lat": 50.08804,
        "Long": 14.42076,
        "PlaceID": "prague_czech-republic"
    },
    "Quebec, Canada": {
        "Lat": 52.00017,
        "Long": -71.99907,
        "PlaceID": "quebec_canada"
    },
    "Santiago, Chile": {
        "Lat": -33.45694,
        "Long": -70.64827,
        "PlaceID": "santiago_chile"
    },
    "Sao Paolo, Brazil": {
        "Lat": -23.5475,
        "Long": -46.63611,
        "PlaceID": "sao-paolo_brazil"
    },
    "Shanghai, China": {
        "Lat": 31.22222,
        "Long": 121.45806,
        "PlaceID": "shanghai_china"
    },
    "Tokyo, Japan": {
        "Lat": 35.6895,
        "Long": 139.69171,
        "PlaceID": "tokyo_japan"
    },
    "True Blue, Grenada": {
        "Lat": 11.99439,
        "Long": -61.76786,
        "PlaceID": "true-blue_grenada"
    },
    "Vienna, Austria": {
        "Lat": 48.20849,
        "Long": 16.37208,
        "PlaceID": "vienna_austria"
    }
}